City_ID,City,Lat,Lng,Max Temp,Humidity,Cloudiness,Wind Speed,Country,Date
0,ushuaia,-54.8,-68.3,47.17,70,97,5.66,AR,1674767759
1,cockburn town,21.4612,-71.1419,77.68,79,7,16.6,TC,1674768016
2,moshkovo,55.3053,83.6104,13.48,83,97,22.86,RU,1674768016
3,kapaa,22.0752,-159.319,73.72,61,40,17.27,US,1674767978
4,key west,24.5557,-81.7826,73.99,76,40,21.85,US,1674767900
5,shingu,33.7333,135.9833,38.03,78,100,4.43,JP,1674767774
6,punta arenas,-53.15,-70.9167,53.71,47,75,34.52,CL,1674768017
7,norman wells,65.282,-126.8329,-0.36,71,100,5.75,CA,1674768017
8,husavik,66.0449,-17.3389,40.93,86,100,10.67,IS,1674768018
9,fort nelson,58.8053,-122.7002,17.94,67,75,6.91,CA,1674768018
10,albany,42.6001,-73.9662,37.22,71,72,5.01,US,1674767821
11,hilo,19.7297,-155.09,76.28,82,0,5.75,US,1674767817
12,goundam,16.4145,-3.6708,78.64,21,34,10.58,ML,1674768019
13,narsaq,60.9167,-46.05,17.82,85,52,5.86,GL,1674768019
14,cape town,-33.9258,18.4232,67.91,71,0,16.11,ZA,1674768001
15,biak,-0.9131,122.8766,76.93,81,100,2.98,ID,1674768020
16,nanortalik,60.1432,-45.2371,23.68,74,100,21.52,GL,1674768020
17,rodrigues alves,-7.738,-72.6509,82.6,86,98,2.46,BR,1674768021
18,atuona,-9.8,-139.0333,78.48,77,18,18.25,PF,1674768021
19,rikitea,-23.1203,-134.9692,79.09,73,100,16.89,PF,1674768021
20,tuatapere,-46.1333,167.6833,57.07,94,100,7.45,NZ,1674768022
21,vestmannaeyjar,63.4427,-20.2734,45.12,83,100,28.5,IS,1674768022
22,avarua,-21.2078,-159.775,84.25,74,20,11.5,CK,1674767984
23,iralaya,15.0,-83.2333,80.2,75,36,13.49,HN,1674768023
24,new norfolk,-42.7826,147.0587,59.72,61,20,3.27,AU,1674768023
25,luderitz,-26.6481,15.1594,65.44,74,0,17.25,NA,1674768024
26,lazaro cardenas,17.9583,-102.2,83.32,48,0,8.84,MX,1674768024
27,rio grande,-32.035,-52.0986,84.31,77,100,16.26,BR,1674768025
28,abu dhabi,24.4667,54.3667,61.97,93,40,8.05,AE,1674768025
29,ilebo,-4.3167,20.5833,72.88,78,86,1.54,CD,1674768026
30,port alfred,-33.5906,26.891,70.18,91,78,1.01,ZA,1674768026
31,umm kaddadah,13.6017,26.6876,68.23,17,88,12.17,SD,1674768027
32,jalu,29.0331,21.5482,59.54,55,0,9.98,LY,1674768027
33,hobart,-42.8794,147.3294,60.06,69,20,6.91,AU,1674768004
34,yushala,57.0761,64.2601,23.13,88,100,11.34,RU,1674768028
35,namatanai,-3.6667,152.4333,80.1,74,87,4.65,PG,1674768028
36,bethel,41.3712,-73.414,43.52,59,100,13.8,US,1674768028
37,homer,59.6425,-151.5483,35.8,78,20,15.99,US,1674767750
38,potam,27.6,-110.3833,73.29,19,87,17.56,MX,1674768029
39,clyde river,70.4692,-68.5914,-11.69,88,100,2.04,CA,1674768029
40,jamestown,42.097,-79.2353,31.59,91,100,12.66,US,1674767732
41,butaritari,3.0707,172.7902,80.44,79,95,17.72,KI,1674768030
42,toppenish,46.3774,-120.3087,50.61,62,51,1.48,US,1674768030
43,eureka,40.8021,-124.1637,67.19,59,0,3.0,US,1674768031
44,hirara,24.8,125.2833,66.6,76,99,25.48,JP,1674767980
45,yanam,16.7333,82.2167,67.17,83,65,2.68,IN,1674768031
46,yar-sale,66.8333,70.8333,6.49,93,96,9.01,RU,1674768031
47,ulladulla,-35.35,150.4667,66.27,90,100,7.23,AU,1674768032
48,cabo san lucas,22.8909,-109.9124,78.62,56,40,3.44,MX,1674768032
49,vaini,-21.2,-175.2,78.96,94,75,6.91,TO,1674768032
50,richards bay,-28.783,32.0377,72.19,86,3,2.08,ZA,1674768033
51,pevek,69.7008,170.3133,-14.75,86,69,2.06,RU,1674768033
52,hamilton,39.1834,-84.5333,32.88,81,100,12.66,US,1674767947
53,muros,42.7762,-9.0603,51.1,80,64,15.03,ES,1674767777
54,aykhal,66.0,111.5,-26.68,99,100,7.49,RU,1674768034
55,asau,46.4333,26.4,29.32,97,100,2.57,RO,1674768034
56,cidreira,-30.1811,-50.2056,79.38,79,21,16.87,BR,1674767739
57,airai,-8.9266,125.4092,60.1,85,96,2.28,TL,1674768034
58,bonavista,48.6499,-53.1147,31.51,88,100,25.28,CA,1674768035
59,victoria,22.2855,114.1577,63.32,65,100,15.01,HK,1674767888
60,maldonado,-34.6667,-54.9167,83.59,27,62,6.67,UY,1674768035
61,san patricio,28.017,-97.5169,60.17,35,5,9.28,US,1674768036
62,cherskiy,68.75,161.3,-29.0,91,4,1.83,RU,1674768036
63,lagoa,39.05,-27.9833,58.57,71,6,16.67,PT,1674768037
64,kodiak,57.79,-152.4072,35.11,87,0,5.75,US,1674768037
65,khorinsk,52.1657,109.7726,-10.66,96,100,4.36,RU,1674768037
66,nova vicosa,-17.8919,-39.3719,78.42,83,98,9.86,BR,1674768037
67,xifeng,42.7372,124.7222,-3.53,86,28,4.32,CN,1674768038
68,zalantun,48.0,122.7167,-16.37,88,52,6.58,CN,1674768038
69,saint george,37.1041,-113.5841,49.24,36,0,6.91,US,1674767946
70,east london,-33.0153,27.9116,72.0,73,53,6.11,ZA,1674768039
71,ostrovnoy,68.0531,39.5131,25.0,88,98,24.4,RU,1674768039
72,imbituba,-28.24,-48.6703,79.47,70,0,17.67,BR,1674768040
73,kroya,-7.6331,109.2461,75.47,93,100,0.38,ID,1674768040
74,busselton,-33.65,115.3333,59.77,91,100,4.21,AU,1674767894
75,zhongxing,33.7039,118.6792,24.85,41,85,9.26,CN,1674768041
76,mana,5.6592,-53.7767,75.42,84,88,7.81,GF,1674768041
77,arraial do cabo,-22.9661,-42.0278,80.46,74,40,11.5,BR,1674767784
78,santa rosalia,27.3167,-112.2833,62.4,29,82,22.88,MX,1674768041
79,bengkulu,-3.8004,102.2655,75.16,91,100,8.37,ID,1674768042
80,pisco,-13.7,-76.2167,78.85,69,0,21.85,PE,1674768042
81,warrnambool,-38.3833,142.4833,53.76,78,5,8.75,AU,1674768042
82,barrow,71.2906,-156.7887,-11.18,77,40,16.11,US,1674768043
83,alto longa,-5.2511,-42.2103,80.8,68,73,5.17,BR,1674768043
84,bonfim,3.0833,-59.95,90.55,33,57,10.02,BR,1674768044
85,birjand,32.8663,59.2211,30.67,55,0,11.5,IR,1674768044
86,jaffna,9.6685,80.0074,76.68,74,100,9.4,LK,1674768045
87,korla,41.7597,86.1469,14.07,60,48,1.32,CN,1674768045
88,hami,42.8,93.45,12.87,47,0,5.48,CN,1674768045
89,kruisfontein,-34.0033,24.7314,63.88,71,0,5.41,ZA,1674768046
90,port macquarie,-31.4333,152.9167,69.89,93,100,2.84,AU,1674767833
91,yellowknife,62.456,-114.3525,-4.45,77,20,15.01,CA,1674768046
92,saint-philippe,-21.3585,55.7679,78.39,85,100,1.57,RE,1674768046
93,upernavik,72.7868,-56.1549,5.25,94,100,9.91,GL,1674768047
94,boa vista,2.8197,-60.6733,87.78,42,40,9.22,BR,1674768047
95,bud,39.447,-86.1758,30.15,85,100,13.24,US,1674768047
96,mataura,-46.1927,168.8643,57.15,97,100,8.08,NZ,1674767821
97,margate,51.3813,1.3862,43.7,78,63,10.0,GB,1674768048
98,puerto escondido,15.85,-97.0667,85.03,65,0,6.91,MX,1674768048
99,codrington,-38.2667,141.9667,53.15,76,8,8.32,AU,1674768049
100,salinopolis,-0.6136,-47.3561,76.86,89,100,10.94,BR,1674768049
101,sekoma,-24.4,23.8833,77.81,37,22,8.3,BW,1674768049
102,ouegoa,-20.35,164.4333,82.58,76,4,5.44,NC,1674768050
103,zhigansk,66.7697,123.3711,-59.53,100,66,1.81,RU,1674768050
104,wilmington,34.2257,-77.9447,56.95,54,0,13.8,US,1674767803
105,hailar,49.2,119.7,-37.39,100,28,3.31,CN,1674768050
106,carnarvon,-24.8667,113.6333,75.65,74,0,18.86,AU,1674768051
107,faanui,-16.4833,-151.75,81.19,76,7,16.73,PF,1674768051
108,souillac,-20.5167,57.5167,75.58,100,75,3.44,MU,1674768051
109,bandarbeyla,9.4942,50.8122,75.45,67,57,15.79,SO,1674768052
110,nikolayevsk-na-amure,53.1406,140.73,-11.52,93,100,7.11,RU,1674768052
111,coquimbo,-29.9533,-71.3436,67.73,68,0,12.66,CL,1674768052
112,marshall,34.3834,-86.3333,47.46,49,75,12.66,US,1674767810
113,marzuq,14.4,46.4667,60.3,78,1,5.59,YE,1674768052
114,ostersund,63.1792,14.6357,28.85,93,75,10.36,SE,1674768053
115,zabol,32.25,67.25,21.63,52,0,6.96,AF,1674768053
116,ribas do rio pardo,-20.4431,-53.7592,89.31,48,37,4.59,BR,1674768053
117,mahebourg,-20.4081,57.7,78.26,100,75,3.44,MU,1674767992
118,funehiki,37.4333,140.5833,27.01,89,100,2.51,JP,1674768054
119,yaviza,8.1537,-77.6931,81.21,91,100,2.21,PA,1674768054
120,la asuncion,11.0333,-63.8628,77.27,75,8,15.19,VE,1674767787
121,saskylakh,71.9167,114.0833,-38.11,97,25,10.16,RU,1674768054
122,vila velha,-20.3297,-40.2925,76.95,87,75,2.3,BR,1674768055
123,port elizabeth,-33.918,25.5701,68.31,79,0,6.91,ZA,1674768055
124,ugoofaaru,5.6667,73.0,80.46,74,41,14.09,MV,1674768055
125,leningradskiy,69.3833,178.4167,-23.49,97,9,3.31,RU,1674768055
126,kalabo,-14.97,22.6814,65.21,93,96,3.94,ZM,1674768056
127,chivay,-15.6383,-71.6011,51.93,81,100,7.92,PE,1674768056
128,bluff,-46.6,168.3333,55.92,89,100,16.53,NZ,1674767985
129,makakilo city,21.3469,-158.0858,77.32,52,0,16.11,US,1674768056
130,isangel,-19.55,169.2667,83.48,74,7,4.97,VU,1674768057
131,luang prabang,19.8856,102.1347,59.76,85,4,0.87,LA,1674768057
132,emporia,38.4039,-96.1817,34.52,69,100,5.75,US,1674768057
133,sao filipe,14.8961,-24.4956,71.29,74,43,10.2,CV,1674768058
134,nagato,34.3833,131.2,40.33,92,100,14.2,JP,1674768058
135,luanda,-8.8368,13.2343,79.84,81,99,8.5,AO,1674768058
136,castro,-24.7911,-50.0119,74.26,60,7,5.01,BR,1674768059
137,provideniya,64.3833,-173.3,-2.09,78,75,4.47,RU,1674768059
138,namibe,-15.1961,12.1522,72.99,77,97,6.02,AO,1674768059
139,shakawe,-18.3667,21.85,66.78,81,86,4.34,BW,1674768059
140,komsomolskiy,40.4272,71.7189,18.32,79,4,2.3,UZ,1674768060
141,mezen,65.8522,44.24,18.82,92,63,9.42,RU,1674768060
142,kodinar,20.7903,70.7031,63.14,34,1,15.32,IN,1674768060
143,brainerd,46.358,-94.2008,17.89,62,75,6.91,US,1674767890
144,sao joao da barra,-21.6403,-41.0511,80.69,84,1,10.11,BR,1674768061
145,san francisco,37.7749,-122.4194,67.95,38,0,13.8,US,1674767889
146,la macarena,2.1837,-73.7849,92.41,28,12,7.85,CO,1674768061
147,sao jose da coroa grande,-8.8978,-35.1478,80.29,74,1,12.37,BR,1674768062
148,garissa,-0.4536,39.6401,78.46,69,29,13.22,KE,1674768062
149,saldanha,-33.0117,17.9442,62.65,85,36,16.28,ZA,1674768062
150,thanh hoa,19.8,105.7667,63.64,90,100,9.04,VN,1674767882
151,puerto ayora,-0.7393,-90.3518,85.96,89,43,7.0,EC,1674768063
152,ponta do sol,32.6667,-17.1,59.63,48,2,8.03,PT,1674768064
153,palauig,15.435,119.9045,75.4,71,100,3.27,PH,1674768064
154,khatanga,71.9667,102.5,-11.76,82,100,13.91,RU,1674768065
155,kuching,1.55,110.3333,80.02,98,40,3.44,MY,1674768065
156,tiksi,71.6872,128.8694,-38.13,98,49,5.14,RU,1674768065
157,lebu,-37.6167,-73.65,63.59,72,0,13.69,CL,1674768066
158,byron bay,-28.65,153.6167,75.94,75,98,1.32,AU,1674768066
159,betanzos,43.2804,-8.2147,50.09,83,40,6.91,ES,1674768067
160,kavieng,-2.5744,150.7967,81.73,73,100,9.04,PG,1674768067
161,phra phutthabat,14.7253,100.7954,72.77,56,6,3.49,TH,1674768067
162,padang,-0.9492,100.3543,75.25,87,100,1.57,ID,1674768068
163,saint anthony,45.0205,-93.218,18.28,61,100,9.22,US,1674768068
164,kangaatsiaq,68.3065,-53.4641,5.9,92,100,8.1,GL,1674768069
165,bull savanna,17.8868,-77.5902,80.02,63,54,16.73,JM,1674768069
166,cayenne,4.9333,-52.3333,80.64,65,20,6.91,GF,1674768069
167,te karaka,-38.4654,177.8679,67.82,67,100,3.36,NZ,1674768070
168,ancud,-41.8697,-73.8203,59.7,58,6,10.22,CL,1674768070
169,lavrentiya,65.5833,-171.0,-13.54,99,90,4.43,RU,1674768071
170,virginia beach,36.8529,-75.978,53.06,50,75,19.57,US,1674767774
171,qaanaaq,77.484,-69.3632,-5.19,65,25,6.73,GL,1674768071
172,chokurdakh,70.6333,147.9167,-42.84,100,85,2.64,RU,1674767987
173,mount gambier,-37.8333,140.7667,51.4,77,4,4.85,AU,1674768071
174,thompson,55.7435,-97.8558,-2.04,78,100,2.3,CA,1674767924
175,dourbali,11.8091,15.8632,79.11,12,35,8.97,TD,1674768072
176,hithadhoo,-0.6,73.0833,80.6,75,96,4.43,MV,1674768072
177,caravelas,-17.7125,-39.2481,79.09,79,97,7.56,BR,1674768073
178,sabang,5.8933,95.3214,78.44,80,99,4.27,ID,1674768073
179,bonanza,14.0289,-84.591,79.48,73,28,4.79,NI,1674768073
180,bogande,12.9714,-0.1436,83.73,11,0,8.72,BF,1674768074
181,hobyo,5.3505,48.5268,76.39,71,18,19.53,SO,1674768074
182,filadelfia,39.9523,-75.1638,46.42,54,75,18.41,US,1674768045
183,kangaba,11.9333,-8.4167,84.92,14,35,5.68,ML,1674768074
184,westport,41.1415,-73.3579,44.74,55,100,21.85,US,1674767846
185,hermanus,-34.4187,19.2345,62.8,76,5,5.57,ZA,1674768075
186,tiarei,-17.5333,-149.3333,77.02,80,9,20.51,PF,1674768075
187,port lincoln,-34.7333,135.8667,66.9,74,0,13.27,AU,1674767869
188,mar del plata,-38.0023,-57.5575,72.82,92,75,11.01,AR,1674768012
189,suntar,62.1444,117.6319,-40.52,100,100,2.3,RU,1674768076
190,nyurba,63.2842,118.3319,-54.85,100,82,2.8,RU,1674768076
191,san andres,12.5847,-81.7006,84.22,70,40,18.41,CO,1674768077
192,minjur,13.2667,80.2667,75.22,72,83,4.25,IN,1674768077
193,vanimo,-2.6741,141.3028,75.96,91,96,4.72,PG,1674768077
194,orsha,54.5153,30.4053,26.19,93,81,9.48,BY,1674768078
195,ola,59.5833,151.2833,5.43,64,100,14.18,RU,1674768078
196,launceston,-41.45,147.1667,60.44,73,40,1.14,AU,1674768079
197,bilma,18.6853,12.9164,77.49,11,17,6.38,NE,1674767805
198,tucuman,-26.8241,-65.2226,87.8,58,20,12.66,AR,1674767927
199,novorzhev,57.0294,29.3338,30.36,96,100,6.58,RU,1674768079
200,ahipara,-35.1667,173.1667,69.94,93,100,11.45,NZ,1674768080
201,ialibu,-6.2821,143.9935,57.43,96,100,3.0,PG,1674768080
202,guerrero negro,27.9769,-114.0611,68.59,22,98,7.11,MX,1674768080
203,los llanos de aridane,28.6585,-17.9182,60.55,69,75,14.0,ES,1674768081
204,rosarito,32.3333,-117.0333,70.23,25,0,29.62,MX,1674768081
205,bredasdorp,-34.5322,20.0403,65.08,71,1,2.53,ZA,1674767814
206,ushtobe,45.2514,77.9838,2.77,95,6,3.31,KZ,1674768082
207,burns lake,54.2331,-125.7533,33.22,100,100,2.75,CA,1674768082
208,aklavik,68.2191,-135.0107,-9.4,77,100,2.3,CA,1674768083
209,san policarpo,12.1791,125.5072,77.59,87,100,1.03,PH,1674768083
210,bundaberg,-24.85,152.35,76.21,95,100,1.01,AU,1674768085
211,kosonsoy,41.2561,71.5508,16.36,65,0,6.73,UZ,1674768085
212,axim,4.8699,-2.2405,80.22,85,30,9.04,GH,1674768086
213,riyadh,24.6877,46.7219,51.94,75,57,8.08,SA,1674767896
214,katsuura,35.1333,140.3,40.78,54,100,3.69,JP,1674768086
215,vestmanna,62.1564,-7.1664,43.72,87,100,14.97,FO,1674768087
216,parkes,-33.1333,148.1833,74.84,51,0,7.47,AU,1674768087
217,danshui,22.7984,114.4672,58.5,51,100,12.37,CN,1674768088
218,hasaki,35.7333,140.8333,35.22,54,100,7.7,JP,1674768088
219,tiznit,29.5833,-9.5,48.15,61,1,2.21,MA,1674768088
220,khaniotis,39.9991,23.58,45.57,84,100,9.4,GR,1674768089
221,puerto colombia,10.9878,-74.9547,84.29,72,100,23.87,CO,1674768010
222,aflao,6.116,1.1914,82.56,78,100,12.71,TG,1674768089
223,cilegon,-6.0174,106.0538,77.11,86,100,3.15,ID,1674768089
224,tuktoyaktuk,69.4541,-133.0374,-32.8,75,40,3.44,CA,1674768090
225,georgetown,5.4112,100.3354,78.73,91,20,1.14,MY,1674768090
226,okhotsk,59.3833,143.3,4.48,75,100,18.88,RU,1674768090
227,lamba,6.3597,124.8122,72.72,98,100,1.43,PH,1674768091
228,olinda,-8.0089,-34.8553,82.13,69,40,8.05,BR,1674768091
229,dingle,10.9995,122.6711,74.98,96,100,7.58,PH,1674768091
230,tabatinga,-4.2525,-69.9381,82.49,65,20,5.75,BR,1674768092
231,tezu,27.9167,96.1667,62.01,43,52,3.33,IN,1674768092
232,eregli,37.5133,34.0467,42.49,48,70,2.53,TR,1674768093
233,valleyview,55.0667,-117.2859,37.44,87,100,2.3,CA,1674768093
234,emborion,40.4833,21.55,32.36,100,100,0.92,GR,1674768093
235,tasiilaq,65.6145,-37.6368,28.56,96,100,6.51,GL,1674768093
236,severo-kurilsk,50.6789,156.125,29.79,94,100,2.08,RU,1674768094
237,mattru,7.6244,-11.8332,77.09,84,58,4.81,SL,1674768094
238,la rioja,42.25,-2.5,31.78,86,92,9.95,ES,1674768094
239,kajaani,64.2273,27.7285,19.45,93,75,5.75,FI,1674768095
240,shankargarh,25.1833,81.6167,60.6,90,54,5.53,IN,1674768095
241,svetlaya,46.5389,138.3297,-0.54,81,68,8.52,RU,1674768095
242,alofi,-19.0595,-169.9187,84.09,70,75,6.91,NU,1674768096
243,quesnel,52.9999,-122.5029,34.3,100,100,2.3,CA,1674767874
244,camrose,53.0168,-112.8353,36.93,85,98,21.83,CA,1674768096
245,kamra,33.7473,73.5111,40.95,58,0,8.88,PK,1674768096
246,labelle,26.7617,-81.4384,71.62,45,0,10.49,US,1674768097
247,saint-joseph,-21.3667,55.6167,77.38,86,100,1.36,RE,1674768097
248,dikson,73.5069,80.5464,1.26,85,100,17.16,RU,1674768097
249,visnes,59.3556,5.2242,35.65,80,8,8.05,NO,1674768097
250,haikou,20.0458,110.3417,64.53,77,75,15.66,CN,1674768098
251,mudon,16.2578,97.7164,67.89,79,0,2.46,MM,1674768098
252,mbamba,9.9833,13.1,79.52,14,4,3.94,NG,1674768098
253,druzhba,52.0428,33.9453,25.16,79,6,5.55,UA,1674768099
254,the valley,18.217,-63.0578,80.46,65,40,10.36,AI,1674768099
255,tinskoy,56.1525,96.9161,21.79,75,100,13.65,RU,1674768099
256,flinders,-34.5833,150.8552,72.18,86,99,5.99,AU,1674767898
257,bitung,1.4451,125.1824,76.05,89,100,5.48,ID,1674768100
258,yulara,-25.2406,130.9889,80.6,46,30,9.04,AU,1674768018
259,mortka,59.3322,66.0214,23.79,89,99,11.72,RU,1674768100
260,chapais,49.7834,-74.8492,8.38,91,100,10.71,CA,1674768100
261,mount isa,-20.7333,139.5,78.57,78,97,5.75,AU,1674768101
262,piacabucu,-10.4056,-36.4344,80.24,79,2,15.05,BR,1674768101
263,san vicente,-26.6167,-54.1333,89.76,32,53,3.53,AR,1674768101
264,jumla,29.2747,82.1838,37.13,31,0,6.04,NP,1674768102
265,walvis bay,-22.9575,14.5053,62.1,79,12,11.65,NA,1674768102
266,ilhabela,-23.7781,-45.3581,77.25,72,9,10.16,BR,1674768102
267,longyearbyen,78.2186,15.6401,6.64,66,20,11.5,SJ,1674768103
268,comal,29.8169,-98.3003,57.85,36,9,1.99,US,1674767865
269,nikolskoye,59.7035,30.7861,33.69,99,100,4.74,RU,1674768103
270,sitka,57.0531,-135.33,44.49,93,100,5.75,US,1674767960
271,pedasi,7.5333,-80.0333,89.06,72,100,13.49,PA,1674768103
272,port hardy,50.6996,-127.4199,51.98,82,75,10.36,CA,1674768104
273,traverse city,44.7631,-85.6206,30.27,78,100,8.05,US,1674767823
274,gerash,27.6652,54.1371,46.54,79,100,9.33,IR,1674768104
275,awjilah,29.1081,21.2869,59.09,59,1,9.44,LY,1674768105
276,gravdal,68.1214,13.5031,37.92,72,100,28.07,NO,1674768105
277,la orilla,17.9833,-102.2333,83.48,46,0,9.06,MX,1674768105
278,berdigestyakh,62.0989,126.6992,-59.03,100,71,2.06,RU,1674768105
279,grande prairie,55.1667,-118.8027,41.18,65,75,14.97,CA,1674767984
280,sundsvall,62.3913,17.3063,21.16,93,0,8.05,SE,1674768106
281,dargaville,-35.9333,173.8833,68.13,96,100,14.76,NZ,1674768106
282,chateau-thierry,49.05,3.4,39.36,88,92,10.29,FR,1674768106
283,glenwood springs,39.5505,-107.3248,28.06,40,46,5.39,US,1674768107
284,itarema,-2.9248,-39.9167,79.59,71,96,11.32,BR,1674768107
285,hare bay,48.8499,-54.0148,29.55,86,100,15.43,CA,1674768107
286,praia da vitoria,38.7333,-27.0667,58.75,82,75,14.36,PT,1674768108
287,salo,45.6086,10.531,42.51,81,77,1.7,IT,1674768108
288,laguna,38.421,-121.4238,64.09,56,0,5.75,US,1674768108
289,talcahuano,-36.7167,-73.1167,69.48,56,20,19.57,CL,1674767814
290,golub-dobrzyn,53.1109,19.0538,33.53,89,100,3.22,PL,1674768109
291,chuy,-33.6971,-53.4616,80.64,66,53,13.18,UY,1674768109
292,praya,14.9215,-23.5087,70.34,73,0,10.36,CV,1674768016
293,arras,50.293,2.7819,42.69,93,60,11.5,FR,1674768110
294,paamiut,61.994,-49.6678,18.0,67,100,2.3,GL,1674768110
295,pemangkat,1.1667,108.9667,76.95,88,100,5.17,ID,1674768110
296,wajima,37.4,136.9,33.62,90,100,9.66,JP,1674768111
297,ribeira grande,38.5167,-28.7,59.4,63,20,11.99,PT,1674768111
298,high level,58.5169,-117.136,14.11,85,100,9.22,CA,1674768111
299,oktyabrskiy,54.4815,53.471,23.36,90,100,11.79,RU,1674768112
300,fare,-16.7,-151.0167,81.37,76,10,17.74,PF,1674768112
301,gorgan,36.8387,54.4348,28.36,80,0,0.0,IR,1674768112
302,mason city,43.1536,-93.201,14.32,77,0,14.97,US,1674768113
303,venezuela,8.0,-66.0,93.49,25,8,15.43,VE,1674767833
304,rio claro,-22.4114,-47.5614,77.4,69,52,4.5,BR,1674768113
305,nuevo laredo,27.4763,-99.5164,59.27,29,0,9.22,MX,1674768114
306,klaksvik,62.2266,-6.589,45.52,88,100,27.85,FO,1674768114
307,saint-georges,12.0564,-61.7485,80.28,69,20,16.11,GD,1674768114
308,charters towers,-20.1,146.2667,75.47,85,54,8.43,AU,1674768115
309,waingapu,-9.6567,120.2641,78.48,86,100,6.55,ID,1674768115
310,naryan-mar,67.6713,53.087,23.86,91,100,17.98,RU,1674768115
311,mercedes,-34.6515,-59.4307,97.92,23,60,7.02,AR,1674768116
312,fairbanks,64.8378,-147.7164,9.09,83,100,5.75,US,1674767914
313,katangli,51.7102,143.2326,3.43,69,100,22.35,RU,1674768116
314,henties bay,-22.116,14.2845,64.38,83,9,9.44,NA,1674768116
315,kurchum,48.5722,83.6542,-12.73,94,17,1.57,KZ,1674768117
316,vila do maio,15.1333,-23.2167,70.59,78,61,13.11,CV,1674768117
317,kushima,31.4583,131.2333,43.43,93,100,8.95,JP,1674768117
318,bathsheba,13.2167,-59.5167,79.41,57,20,16.11,BB,1674768118
319,kashi,39.4547,75.9797,15.01,79,8,8.95,CN,1674768118
320,sonaguera,15.6333,-86.3333,82.6,54,14,6.44,HN,1674768118
321,huambo,-12.7761,15.7392,61.72,89,100,2.57,AO,1674767897
322,taree,-31.9,152.4667,71.98,98,99,2.84,AU,1674768119
323,arlit,18.7369,7.3853,75.49,12,18,8.77,NE,1674768119
324,dori,14.0354,-0.0345,83.26,12,1,8.84,BF,1674768119
325,ziarat,30.3823,67.7282,25.39,19,1,4.03,PK,1674768120
326,omboue,-1.5746,9.2618,77.97,85,100,6.13,GA,1674767871
327,fortuna,40.5982,-124.1573,66.92,45,0,1.99,US,1674768120
328,keetmanshoop,-26.5833,18.1333,86.29,30,23,10.89,NA,1674768120
329,smidovich,48.6,133.8167,-31.32,96,33,5.75,RU,1674768121
330,qandala,11.472,49.8728,75.54,66,10,6.44,SO,1674768121
331,taft,31.7471,54.2088,35.55,56,75,4.61,IR,1674768028
332,beringovskiy,63.05,179.3167,-3.84,94,100,15.57,RU,1674768121
333,manono,-7.3,27.4167,68.31,95,100,1.92,CD,1674768122
334,campoverde,-8.4753,-74.8058,91.09,35,97,2.64,PE,1674768122
335,never,46.9896,3.159,31.75,92,100,5.08,FR,1674768123
336,flagstaff,35.1981,-111.6513,35.26,43,0,11.5,US,1674768123
337,san cristobal,7.7669,-72.225,77.18,34,77,2.04,VE,1674768124
338,bandar-e lengeh,26.5579,54.8807,57.31,82,100,24.16,IR,1674768124
339,north battleford,52.7834,-108.2847,35.69,75,75,29.93,CA,1674767882
340,marsh harbour,26.5412,-77.0636,77.27,74,0,9.84,BS,1674768124
341,marsa matruh,31.3525,27.2453,62.91,40,99,11.79,EG,1674768125
342,carbonia,39.1672,8.5222,42.01,80,72,6.44,IT,1674768125
343,geraldton,-28.7667,114.6,70.21,78,40,20.71,AU,1674768126
344,waipawa,-41.4122,175.5153,65.5,63,100,5.06,NZ,1674768126
345,coffs harbour,-30.3,153.1333,73.36,83,100,5.75,AU,1674767975
346,chissamba,-12.1667,17.3333,61.39,97,100,4.72,AO,1674768126
347,ginir,7.1333,40.7,59.4,46,71,3.13,ET,1674768127
348,tatui,-23.3556,-47.8569,75.83,64,39,15.12,BR,1674768127
349,boende,-0.2167,20.8667,76.73,62,100,3.42,CD,1674768127
350,sumbe,-11.2061,13.8437,78.01,84,77,7.54,AO,1674768128
351,bijar,35.8668,47.6051,18.21,89,82,1.41,IR,1674768128
352,santo tomas,14.1079,121.1414,75.45,86,100,5.64,PH,1674768128
353,kilindoni,-7.9139,39.6668,79.75,79,100,5.57,TZ,1674768129
354,la palma,33.8464,-118.0467,72.82,22,0,18.41,US,1674768129
355,alice springs,-23.7,133.8833,80.15,44,40,6.91,AU,1674768130
356,san jose,37.3394,-121.895,69.6,38,0,5.99,US,1674767895
357,zile,40.3031,35.8864,37.4,56,23,3.0,TR,1674768130
358,autun,46.95,4.3,30.52,92,97,4.9,FR,1674768130
359,kahului,20.8947,-156.47,74.97,93,100,3.0,US,1674768131
360,svetlogorsk,52.6333,29.7333,26.78,78,24,5.84,BY,1674768131
361,half moon bay,37.4636,-122.4286,68.41,37,0,10.36,US,1674768078
362,ossora,59.2353,163.0719,8.37,92,100,22.39,RU,1674768132
363,tilichiki,60.4667,166.1,-12.95,84,100,9.8,RU,1674768132
364,chekhov,55.1431,37.4711,26.85,94,43,8.95,RU,1674768133
365,kununurra,-15.7667,128.7333,76.98,100,75,0.0,AU,1674768133
366,ponta delgada,37.7333,-25.6667,57.92,72,75,6.91,PT,1674768133
367,delicias,41.6493,-0.9076,43.12,74,0,27.63,ES,1674768134
368,marang,5.2056,103.2059,73.31,90,100,8.57,MY,1674768134
369,sinnamary,5.3833,-52.95,76.06,82,95,7.81,GF,1674768135
370,kemijarvi,66.7131,27.4306,8.44,93,25,4.05,FI,1674768135
371,itoman,26.1247,127.6694,62.62,82,75,28.77,JP,1674768135
372,anadyr,64.75,177.4833,-3.5,71,40,15.66,RU,1674768136
373,avera,33.194,-82.5271,51.31,46,10,14.47,US,1674767911
374,salvador,13.8333,-88.9167,85.05,24,90,6.73,SV,1674768136
375,bambous virieux,-20.3428,57.7575,78.22,100,75,3.44,MU,1674768136
376,banyo,6.75,11.8167,72.73,21,3,4.16,CM,1674768137
377,corner brook,48.9667,-57.9484,32.16,91,100,27.72,CA,1674767879
378,joaima,-16.6542,-41.0306,75.22,89,100,1.7,BR,1674768137
379,lata,40.1629,-8.3327,40.08,92,3,5.46,PT,1674768138
380,lubumbashi,-11.6609,27.4794,62.71,97,100,3.65,CD,1674768138
381,yumen,40.2833,97.2,7.75,66,0,6.06,CN,1674768138
382,sayansk,54.1088,102.1648,7.16,89,100,3.98,RU,1674768139
383,inongo,-1.95,18.2667,77.76,66,54,2.46,CD,1674768139
384,rawson,-43.3002,-65.1023,77.72,23,16,16.96,AR,1674768087
385,vitina,43.2375,17.4839,38.77,73,100,5.64,BA,1674768140
386,poum,-20.2333,164.0167,81.27,78,2,4.76,NC,1674768116
387,grand gaube,-20.0064,57.6608,78.39,90,100,10.0,MU,1674768140
388,la ronge,55.1001,-105.2842,12.45,79,75,13.8,CA,1674768141
389,songjianghe,42.1859,127.479,-9.27,98,30,2.26,CN,1674768141
390,mega,4.05,38.3,65.03,43,100,21.25,ET,1674768141
391,talnakh,69.4865,88.3972,-0.8,90,100,12.06,RU,1674768142
392,iqaluit,63.7506,-68.5145,-9.67,59,75,10.36,CA,1674768142
393,thinadhoo,0.5333,72.9333,80.4,73,73,5.66,MV,1674768143
394,san borja,-14.8167,-66.85,85.44,65,100,2.91,BO,1674768143
395,jabinyanah,35.035,10.9081,49.8,73,24,13.71,TN,1674768143
396,otane,-39.8833,176.6333,67.01,64,100,7.7,NZ,1674768144
397,bulungu,-4.55,18.6,73.74,75,91,1.3,CD,1674768144
398,bronnoysund,65.4625,12.1997,33.8,86,75,5.99,NO,1674768145
399,lasa,46.6166,10.7002,29.28,64,81,6.13,IT,1674768145
400,amapa,1.0,-52.0,79.93,69,69,2.59,BR,1674768145
401,lumeje,-11.55,20.7833,65.07,95,100,4.14,AO,1674768146
402,kenai,60.5544,-151.2583,35.69,79,0,18.41,US,1674768146
403,fukue,32.6881,128.8419,47.82,79,100,26.22,JP,1674768146
404,kismayo,-0.3582,42.5454,77.0,79,11,18.25,SO,1674768147
405,tayu,-6.5397,111.0518,75.34,94,100,3.65,ID,1674768147
406,sri aman,1.2376,111.4621,75.25,94,100,2.3,MY,1674768147
407,riberalta,-10.9833,-66.1,84.4,74,75,13.8,BO,1674768148
408,williams lake,52.1415,-122.1445,40.57,96,100,3.44,CA,1674768148
409,anisoc,1.8658,10.7689,71.33,98,49,1.7,GQ,1674768148
410,halifax,44.6453,-63.5724,51.69,95,96,38.99,CA,1674768045
411,roros,62.5747,11.3842,22.84,80,40,11.5,NO,1674768149
412,leh,34.1667,77.5833,1.47,69,11,1.14,IN,1674768149
413,borodino,55.9106,94.8983,22.17,71,100,22.64,RU,1674768150
414,pangnirtung,66.1451,-65.7125,-16.6,76,100,4.61,CA,1674768150
415,srednekolymsk,67.45,153.6833,-43.62,99,55,4.79,RU,1674768150
416,mangan,27.5167,88.5333,56.37,58,100,4.52,IN,1674767995
417,ust-ordynskiy,52.805,104.7508,0.59,92,100,1.43,RU,1674768151
418,valparaiso,-33.0393,-71.6273,77.23,56,0,12.66,CL,1674768151
419,villazon,-22.0866,-65.5942,66.15,40,92,17.31,BO,1674768152
420,bouar,5.934,15.596,72.61,23,36,5.37,CF,1674768152
421,severnoye,56.3491,78.3619,12.96,89,100,19.48,RU,1674768152
422,barcelos,41.5388,-8.6151,46.54,89,3,7.25,PT,1674768153
423,altay,47.8667,88.1167,3.51,62,25,6.6,CN,1674768153
424,touros,-5.1989,-35.4608,80.22,69,3,10.18,BR,1674768153
425,cuajinicuilapa,16.4667,-98.4167,91.51,31,0,11.23,MX,1674768153
426,san quintin,30.4833,-115.95,63.19,39,53,8.37,MX,1674768154
427,palmas,-10.2128,-48.3603,82.98,21,75,3.44,BR,1674767903
428,kavaratti,10.5669,72.642,79.36,77,30,9.71,IN,1674767999
429,nemuro,43.3236,145.575,21.88,74,100,23.38,JP,1674768154
430,orotukan,62.2667,151.7,-35.19,100,100,3.11,RU,1674768155
431,kaitangata,-46.2817,169.8464,60.3,93,100,4.99,NZ,1674768155
432,meulaboh,4.1363,96.1285,75.11,90,98,3.15,ID,1674768155
433,arman,59.7,150.1667,1.63,73,100,14.88,RU,1674768156
434,beaupre,47.0443,-70.8953,25.18,93,100,5.75,CA,1674768156
435,karratha,-20.7377,116.8463,85.91,61,17,7.92,AU,1674768157
436,ulagan,50.6321,87.9563,4.95,91,93,2.98,RU,1674768157
437,birao,10.2849,22.7882,75.58,15,15,6.64,CF,1674768157
438,acapulco,16.8634,-99.8901,85.82,54,0,8.05,MX,1674768085
439,dorchester,33.1002,-80.3831,58.98,52,0,12.66,US,1674768158
440,sechura,-5.5569,-80.8222,79.52,61,36,15.3,PE,1674768158
441,sinnai,39.3042,9.2036,45.12,82,0,5.75,IT,1674768158
442,dhidhdhoo,6.8833,73.1,79.61,77,11,7.87,MV,1674768158
443,darhan,49.4867,105.9228,-16.38,92,71,5.14,MN,1674768159
444,nenton,15.8,-91.75,82.29,41,75,3.83,GT,1674768159
445,odweyne,9.4092,45.064,66.51,65,38,3.69,SO,1674768159
446,palmer,42.1584,-72.3287,42.35,58,100,13.8,US,1674768160
447,constitucion,-35.3333,-72.4167,66.02,61,3,17.76,CL,1674768160
448,batagay-alyta,67.8006,130.4114,-44.59,91,13,4.81,RU,1674768160
449,anshun,26.25,105.9333,34.16,73,100,14.14,CN,1674768161
450,port-gentil,-0.7193,8.7815,75.16,100,20,1.14,GA,1674768161
451,tabat,-2.635,115.2274,72.36,99,100,0.58,ID,1674768161
452,galesong,-5.3166,119.3661,73.42,89,100,6.44,ID,1674768162
453,denpasar,-8.65,115.2167,78.46,94,40,3.44,ID,1674767986
454,dzaoudzi,-12.7887,45.2699,82.29,83,75,17.27,YT,1674768162
455,ambilobe,-13.2,49.05,72.3,97,100,2.08,MG,1674768162
456,wewak,-3.5534,143.6268,76.62,87,99,4.81,PG,1674768163
457,iisalmi,63.5592,27.1907,16.66,98,52,3.42,FI,1674768163
458,pundaguitan,6.3711,126.1689,79.66,80,100,7.45,PH,1674768163
459,ende,-8.8432,121.6623,78.04,88,99,4.72,ID,1674768164
460,sayyan,15.1718,44.3244,52.84,51,6,2.64,YE,1674768164
461,waddan,29.1614,16.139,56.17,44,1,1.28,LY,1674768164
462,zafra,38.4167,-6.4167,34.66,80,5,4.45,ES,1674768165
463,bereznyky,48.5141,23.2198,31.33,74,66,4.0,UA,1674768165
464,kiruna,67.8557,20.2251,20.32,63,0,12.66,SE,1674768165
465,kamen-rybolov,44.7481,132.0403,-17.25,99,52,1.5,RU,1674768166
466,show low,34.2542,-110.0298,35.08,42,0,9.22,US,1674768166
467,champerico,14.3,-91.9167,95.54,58,3,10.54,GT,1674768166
468,belaya gora,68.5333,146.4167,-45.49,100,57,2.48,RU,1674768167
469,khomutovka,51.9207,34.5619,24.78,82,6,4.92,RU,1674768167
470,maniitsoq,65.4167,-52.9,15.51,80,100,17.25,GL,1674768167
471,yetkul,54.8221,61.588,18.48,88,82,9.04,RU,1674768168
472,ayacucho,-13.1583,-74.2239,60.66,72,75,3.44,PE,1674768168
473,urumqi,43.801,87.6005,-10.25,84,75,0.0,CN,1674768168
474,diego de almagro,-26.3667,-70.05,79.52,30,0,12.48,CL,1674768168
475,lorengau,-2.0226,147.2712,81.12,78,82,8.66,PG,1674768169
476,pietarsaari,63.65,22.6833,30.99,82,10,5.93,FI,1674768169
477,gizo,-8.103,156.8419,80.91,73,100,2.98,SB,1674768169
478,curuca,-0.7289,-47.8481,74.77,94,100,6.8,BR,1674768170
479,nabire,-3.3667,135.4833,75.7,91,100,2.24,ID,1674768170
480,bowen,-20.0167,148.2333,77.49,90,98,8.5,AU,1674768170
481,anloga,5.7947,0.8973,81.91,83,100,14.92,GH,1674768171
482,eydhafushi,5.1033,73.0708,80.44,76,27,14.43,MV,1674768171
483,oranjemund,-28.55,16.4333,62.96,87,1,15.3,NA,1674768171
484,ngunguru,-35.6167,174.5,68.02,96,100,27.2,NZ,1674768172
485,kalaleh,37.3807,55.4916,33.4,64,20,0.0,IR,1674768172
486,sao miguel do araguaia,-13.275,-50.1628,76.41,89,100,2.3,BR,1674768172
487,baykit,61.67,96.37,-0.06,99,100,3.29,RU,1674768172
488,esperance,-33.8667,121.9,65.82,85,100,7.96,AU,1674768173
489,alta floresta,-9.8756,-56.0861,77.16,90,84,4.74,BR,1674768173
490,havoysund,70.9963,24.6622,32.23,69,100,27.92,NO,1674768173
491,coihaique,-45.5752,-72.0662,57.15,58,75,8.05,CL,1674768174
492,xuddur,4.1213,43.8894,74.75,35,44,12.82,SO,1674768174
493,oktyabrskoye,43.0645,44.7417,23.14,93,100,4.47,RU,1674768175
494,saint-augustin,51.226,-58.6502,23.09,94,100,27.18,CA,1674768175
495,atambua,-9.1061,124.8925,73.87,83,76,2.39,ID,1674768175
496,fonte boa,-2.4959,-66.2662,80.46,87,100,1.9,BR,1674768176
497,san juan bautista,-14.0108,-75.7358,85.08,45,100,14.81,PE,1674768176
498,pishva,35.308,51.7267,36.55,39,40,4.63,IR,1674768176
499,saint-louis,16.3333,-15.0,85.64,17,83,9.19,SN,1674768177
500,reporoa,-38.4333,176.35,63.41,99,100,4.34,NZ,1674768177
501,pokhara,28.2333,83.9833,60.04,26,1,7.43,NP,1674768177
502,linjiang,41.8069,126.9078,-8.77,100,79,1.45,CN,1674768178
503,hofn,64.2539,-15.2082,44.89,97,100,30.8,IS,1674768178
504,maceio,-9.6658,-35.7353,80.04,83,0,13.8,BR,1674767914
505,orocue,4.7912,-71.3354,95.4,25,69,12.62,CO,1674768178
506,faya,18.3851,42.4509,51.91,75,0,1.54,SA,1674768179
507,pangkalanbuun,-2.6833,111.6167,73.53,98,100,2.53,ID,1674768179
508,grindavik,63.8424,-22.4338,41.47,81,75,34.52,IS,1674768179
509,mayaky,47.4408,29.5599,27.93,82,29,7.29,UA,1674768180
510,zunilito,14.6167,-91.5167,86.36,72,10,7.27,GT,1674768180
511,pimentel,-6.8367,-79.9342,80.89,61,0,18.41,PE,1674768180
512,yarkovo,57.4028,67.0786,23.65,91,100,12.01,RU,1674768181
513,changping,40.2186,116.2197,20.84,35,0,10.09,CN,1674768181
514,nueva gerona,21.8833,-82.8,79.95,69,35,6.17,CU,1674768181
515,ozinki,51.1786,49.6769,16.61,77,100,7.43,RU,1674767967
516,port dickson,2.5228,101.7959,75.65,86,100,6.44,MY,1674768182
517,swift current,50.2834,-107.8014,38.21,75,0,33.38,CA,1674768183
518,plettenberg bay,-34.0527,23.3716,66.85,75,0,3.29,ZA,1674768183
519,tonantins,-2.8731,-67.8022,87.75,58,90,1.14,BR,1674768183
520,kita,13.0349,-9.4895,84.34,15,75,5.73,ML,1674768184
521,deputatskiy,69.3,139.9,-34.67,96,100,2.53,RU,1674768184
522,shangqiu,34.45,115.65,23.41,37,33,5.7,CN,1674768185
523,naze,28.3667,129.4833,56.32,89,100,20.36,JP,1674768185
524,assiniboia,49.6334,-105.9845,35.42,80,98,25.32,CA,1674768185
525,wajid,3.8093,43.2471,77.72,31,34,12.39,SO,1674768186
526,mahajanga,-15.7167,46.3167,78.82,94,75,12.66,MG,1674767930
527,sao felix do xingu,-6.6447,-51.995,75.83,95,99,2.13,BR,1674768186
528,borogontsy,62.6683,131.1683,-56.15,100,78,2.66,RU,1674768187
529,wichita falls,33.9137,-98.4934,52.25,40,0,14.97,US,1674768001
530,gilbues,-9.8317,-45.3439,79.74,68,91,3.6,BR,1674768187
531,tarauaca,-8.1614,-70.7656,80.15,91,53,3.89,BR,1674768187
532,bereda,43.2686,-7.5406,44.15,100,97,6.46,ES,1674768188
533,araouane,18.9048,-3.5265,71.13,14,40,12.48,ML,1674768188
534,barao de cocais,-19.9458,-43.4872,75.58,96,34,3.74,BR,1674768189
535,bilibino,68.0546,166.4372,-8.07,72,6,9.15,RU,1674768189
536,synya,65.3718,58.0387,23.2,94,99,10.38,RU,1674768189
537,mikulov,48.8056,16.6378,34.25,91,99,1.99,CZ,1674768190
538,xining,36.6167,101.7667,8.37,55,0,1.36,CN,1674768190
539,tabas,33.5959,56.9244,37.62,35,45,4.61,IR,1674768190
540,sambava,-14.2667,50.1667,76.8,88,100,5.03,MG,1674768191
541,vung tau,10.346,107.0843,75.04,80,56,7.18,VN,1674768191
542,dosso,13.049,3.1937,80.94,9,4,7.99,NE,1674768192
543,jardim,-21.4803,-56.1381,86.41,55,85,3.78,BR,1674768192
544,eha amufu,6.6592,7.7596,84.31,34,2,4.76,NG,1674768192
545,port blair,11.6667,92.75,77.02,73,28,7.74,IN,1674768193
546,washougal,45.5826,-122.3534,46.47,87,100,4.61,US,1674768193
547,evensk,61.95,159.2333,7.99,42,99,29.68,RU,1674768194
548,skibbereen,51.55,-9.2667,44.11,87,49,5.75,IE,1674768194
549,betioky,-23.7167,44.3833,76.93,70,100,17.02,MG,1674768195
550,soligalich,59.0778,42.2864,31.82,98,100,6.55,RU,1674768195
551,rocha,-34.4833,-54.3333,91.65,26,11,14.27,UY,1674767966
552,badarwas,24.9667,77.5667,55.89,84,2,7.83,IN,1674768020
553,toamasina,-18.1667,49.3833,77.0,94,75,5.75,MG,1674768195
554,bayir,37.2687,28.2167,57.72,86,23,15.26,TR,1674768196
555,honiara,-9.4333,159.95,80.82,79,96,2.3,SB,1674768196
556,pemba,-12.974,40.5178,77.41,72,100,6.91,MZ,1674768196
557,jaisalmer,26.9147,70.9181,52.61,23,0,8.9,IN,1674768197
558,santo estevao,-12.4303,-39.2514,80.6,56,100,11.01,BR,1674768197
559,menongue,-14.6585,17.691,64.53,86,62,2.93,AO,1674768197
560,tazovskiy,67.4667,78.7,10.76,94,100,11.41,RU,1674768198
561,smoky lake,54.1169,-112.4686,36.32,80,97,17.27,CA,1674768198
562,ayodhya,26.8,82.2,59.41,79,52,9.95,IN,1674768199
563,staraya kulatka,52.7167,47.6167,15.57,82,100,7.07,RU,1674768199
564,jiazi,22.8779,116.067,60.76,62,100,8.97,CN,1674768199
565,maiduguri,11.8464,13.1603,76.01,12,75,8.21,NG,1674768200
566,yeppoon,-23.1333,150.7333,76.78,84,55,6.78,AU,1674768200
567,hamamatsu,34.7,137.7333,37.02,65,100,5.01,JP,1674768200
568,ashqelon,31.6693,34.5715,54.82,55,0,5.41,IL,1674768201
569,kitimat,54.0524,-128.6534,43.18,30,100,3.4,CA,1674768031
570,hohhot,40.8106,111.6522,-1.91,65,0,4.47,CN,1674768201
571,the pas,53.8251,-101.2541,10.42,79,75,9.22,CA,1674768202
572,george town,5.4112,100.3354,78.73,91,20,1.14,MY,1674767920
573,tura,25.5198,90.2201,61.34,62,33,2.73,IN,1674768202
